{"ast":null,"code":"var _jsxFileName = \"C:\\\\Users\\\\User\\\\Documents\\\\campusnexus\\\\frontend\\\\student-portal-app\\\\src\\\\components\\\\CampusNavigation\\\\CampusNavigation.tsx\",\n  _s = $RefreshSig$();\nimport React, { useState } from 'react';\nimport './CampusNavigation.css';\nimport { jsxDEV as _jsxDEV } from \"react/jsx-dev-runtime\";\nconst buildings = [{\n  name: 'Admin',\n  lat: -31.602360,\n  lng: 28.749856,\n  url: 'https://www.google.com/maps?q=-31.602360,28.749856'\n}, {\n  name: 'Examination Office',\n  lat: -31.602438,\n  lng: 28.750024,\n  url: 'https://www.google.com/maps?q=-31.602438,28.750024'\n}, {\n  name: 'Residence Office',\n  lat: -31.602197,\n  lng: 28.751150,\n  url: 'https://www.google.com/maps?q=-31.602197,28.751150'\n}, {\n  name: 'Chumani',\n  lat: -31.602306,\n  lng: 28.751233,\n  url: 'https://www.google.com/maps?q=-31.602306,28.751233'\n}, {\n  name: 'Thuso Print',\n  lat: -31.602635,\n  lng: 28.751872,\n  url: 'https://www.google.com/maps?q=-31.602635,28.751872'\n}, {\n  name: 'Isimela',\n  lat: -31.603385,\n  lng: 28.751127,\n  url: 'https://www.google.com/maps?q=-31.603385,28.751127'\n}, {\n  name: 'EL',\n  lat: -31.603050,\n  lng: 28.750330,\n  url: 'https://www.google.com/maps?q=-31.603050,28.750330'\n}, {\n  name: 'Great Hall',\n  lat: -31.603177,\n  lng: 28.750409,\n  url: 'https://www.google.com/maps?q=-31.603177,28.750409'\n}, {\n  name: 'FNB Bank',\n  lat: -31.603296,\n  lng: 28.750149,\n  url: 'https://www.google.com/maps?q=-31.603296,28.750149'\n}, {\n  name: 'Ebotwe',\n  lat: -31.603513,\n  lng: 28.750053,\n  url: 'https://www.google.com/maps?q=-31.603513,28.750053'\n}, {\n  name: 'FAB',\n  lat: -31.604220,\n  lng: 28.749310,\n  url: 'https://www.google.com/maps?q=-31.604220,28.749310'\n}, {\n  name: 'Campus Control',\n  lat: -31.604799,\n  lng: 28.749908,\n  url: 'https://www.google.com/maps?q=-31.604799,28.749908'\n}, {\n  name: 'Maintenance',\n  lat: -31.601799,\n  lng: 28.748831,\n  url: 'https://www.google.com/maps?q=-31.601799,28.748831'\n}, {\n  name: 'Old Study Center',\n  lat: -31.602408,\n  lng: 28.750109,\n  url: 'https://www.google.com/maps?q=-31.602408,28.750109'\n}, {\n  name: 'Residence Office (forwarded)',\n  lat: -31.602663,\n  lng: 28.750094,\n  url: 'https://www.google.com/maps?q=-31.602663,28.750094'\n}, {\n  name: 'Snack Bar',\n  lat: -31.602832,\n  lng: 28.750249,\n  url: 'https://www.google.com/maps?q=-31.602832,28.750249'\n}, {\n  name: 'Auditorium Main Door',\n  lat: -31.602836,\n  lng: 28.750240,\n  url: 'https://www.google.com/maps?q=-31.602836,28.750240'\n}];\nconst defaultCenter = {\n  lat: -31.6028,\n  lng: 28.7502\n};\nconst CampusNavigation = () => {\n  _s();\n  const [selected, setSelected] = useState(null);\n  const mapSrc = selected !== null ? `https://www.google.com/maps/embed/v1/place?key=AIzaSyBgN9uR-pfUyxc8YFgo9Yw08u4f-1H7GHM&q=${buildings[selected].lat},${buildings[selected].lng}&zoom=18` : `https://www.google.com/maps/embed/v1/view?key=AIzaSyBgN9uR-pfUyxc8YFgo9Yw08u4f-1H7GHM&center=${defaultCenter.lat},${defaultCenter.lng}&zoom=17`;\n  return /*#__PURE__*/_jsxDEV(\"div\", {\n    className: \"campus-navigation\",\n    children: [/*#__PURE__*/_jsxDEV(\"h1\", {\n      children: \"Campus Navigation\"\n    }, void 0, false, {\n      fileName: _jsxFileName,\n      lineNumber: 35,\n      columnNumber: 7\n    }, this), /*#__PURE__*/_jsxDEV(\"p\", {\n      children: \"Explore Walter Sisulu University campus. Select a building to see its location and get directions.\"\n    }, void 0, false, {\n      fileName: _jsxFileName,\n      lineNumber: 36,\n      columnNumber: 7\n    }, this), /*#__PURE__*/_jsxDEV(\"div\", {\n      className: \"campus-map-container fade-in\",\n      children: /*#__PURE__*/_jsxDEV(\"iframe\", {\n        title: \"Campus Map\",\n        width: \"100%\",\n        height: \"100%\",\n        frameBorder: \"0\",\n        style: {\n          border: 0\n        },\n        src: mapSrc,\n        allowFullScreen: true\n      }, void 0, false, {\n        fileName: _jsxFileName,\n        lineNumber: 38,\n        columnNumber: 9\n      }, this)\n    }, void 0, false, {\n      fileName: _jsxFileName,\n      lineNumber: 37,\n      columnNumber: 7\n    }, this), /*#__PURE__*/_jsxDEV(\"div\", {\n      className: \"building-list\",\n      children: buildings.map((b, i) => /*#__PURE__*/_jsxDEV(\"div\", {\n        className: `building-card${selected === i ? ' selected' : ''}`,\n        onClick: () => setSelected(i),\n        tabIndex: 0,\n        style: {\n          animationDelay: `${i * 0.04}s`\n        },\n        children: [/*#__PURE__*/_jsxDEV(\"h3\", {\n          children: b.name\n        }, void 0, false, {\n          fileName: _jsxFileName,\n          lineNumber: 57,\n          columnNumber: 13\n        }, this), /*#__PURE__*/_jsxDEV(\"a\", {\n          href: b.url,\n          target: \"_blank\",\n          rel: \"noopener noreferrer\",\n          children: \"View on Google Maps\"\n        }, void 0, false, {\n          fileName: _jsxFileName,\n          lineNumber: 58,\n          columnNumber: 13\n        }, this), selected === i && /*#__PURE__*/_jsxDEV(\"a\", {\n          href: `https://www.google.com/maps/dir/?api=1&destination=${b.lat},${b.lng}`,\n          target: \"_blank\",\n          rel: \"noopener noreferrer\",\n          style: {\n            marginTop: '0.5rem',\n            color: '#0078d4',\n            fontWeight: 600\n          },\n          children: \"Get Directions\"\n        }, void 0, false, {\n          fileName: _jsxFileName,\n          lineNumber: 60,\n          columnNumber: 15\n        }, this)]\n      }, b.name, true, {\n        fileName: _jsxFileName,\n        lineNumber: 50,\n        columnNumber: 11\n      }, this))\n    }, void 0, false, {\n      fileName: _jsxFileName,\n      lineNumber: 48,\n      columnNumber: 7\n    }, this)]\n  }, void 0, true, {\n    fileName: _jsxFileName,\n    lineNumber: 34,\n    columnNumber: 5\n  }, this);\n};\n_s(CampusNavigation, \"PVKrpNrydW4BpnDEq9OT3cVmCk4=\");\n_c = CampusNavigation;\nexport default CampusNavigation;\nvar _c;\n$RefreshReg$(_c, \"CampusNavigation\");","map":{"version":3,"names":["React","useState","jsxDEV","_jsxDEV","buildings","name","lat","lng","url","defaultCenter","CampusNavigation","_s","selected","setSelected","mapSrc","className","children","fileName","_jsxFileName","lineNumber","columnNumber","title","width","height","frameBorder","style","border","src","allowFullScreen","map","b","i","onClick","tabIndex","animationDelay","href","target","rel","marginTop","color","fontWeight","_c","$RefreshReg$"],"sources":["C:/Users/User/Documents/campusnexus/frontend/student-portal-app/src/components/CampusNavigation/CampusNavigation.tsx"],"sourcesContent":["import React, { useState } from 'react';\nimport './CampusNavigation.css';\n\nconst buildings = [\n  { name: 'Admin', lat: -31.602360, lng: 28.749856, url: 'https://www.google.com/maps?q=-31.602360,28.749856' },\n  { name: 'Examination Office', lat: -31.602438, lng: 28.750024, url: 'https://www.google.com/maps?q=-31.602438,28.750024' },\n  { name: 'Residence Office', lat: -31.602197, lng: 28.751150, url: 'https://www.google.com/maps?q=-31.602197,28.751150' },\n  { name: 'Chumani', lat: -31.602306, lng: 28.751233, url: 'https://www.google.com/maps?q=-31.602306,28.751233' },\n  { name: 'Thuso Print', lat: -31.602635, lng: 28.751872, url: 'https://www.google.com/maps?q=-31.602635,28.751872' },\n  { name: 'Isimela', lat: -31.603385, lng: 28.751127, url: 'https://www.google.com/maps?q=-31.603385,28.751127' },\n  { name: 'EL', lat: -31.603050, lng: 28.750330, url: 'https://www.google.com/maps?q=-31.603050,28.750330' },\n  { name: 'Great Hall', lat: -31.603177, lng: 28.750409, url: 'https://www.google.com/maps?q=-31.603177,28.750409' },\n  { name: 'FNB Bank', lat: -31.603296, lng: 28.750149, url: 'https://www.google.com/maps?q=-31.603296,28.750149' },\n  { name: 'Ebotwe', lat: -31.603513, lng: 28.750053, url: 'https://www.google.com/maps?q=-31.603513,28.750053' },\n  { name: 'FAB', lat: -31.604220, lng: 28.749310, url: 'https://www.google.com/maps?q=-31.604220,28.749310' },\n  { name: 'Campus Control', lat: -31.604799, lng: 28.749908, url: 'https://www.google.com/maps?q=-31.604799,28.749908' },\n  { name: 'Maintenance', lat: -31.601799, lng: 28.748831, url: 'https://www.google.com/maps?q=-31.601799,28.748831' },\n  { name: 'Old Study Center', lat: -31.602408, lng: 28.750109, url: 'https://www.google.com/maps?q=-31.602408,28.750109' },\n  { name: 'Residence Office (forwarded)', lat: -31.602663, lng: 28.750094, url: 'https://www.google.com/maps?q=-31.602663,28.750094' },\n  { name: 'Snack Bar', lat: -31.602832, lng: 28.750249, url: 'https://www.google.com/maps?q=-31.602832,28.750249' },\n  { name: 'Auditorium Main Door', lat: -31.602836, lng: 28.750240, url: 'https://www.google.com/maps?q=-31.602836,28.750240' },\n];\n\nconst defaultCenter = { lat: -31.6028, lng: 28.7502 };\n\nconst CampusNavigation: React.FC = () => {\n  const [selected, setSelected] = useState<number | null>(null);\n\n  const mapSrc = selected !== null\n    ? `https://www.google.com/maps/embed/v1/place?key=AIzaSyBgN9uR-pfUyxc8YFgo9Yw08u4f-1H7GHM&q=${buildings[selected].lat},${buildings[selected].lng}&zoom=18`\n    : `https://www.google.com/maps/embed/v1/view?key=AIzaSyBgN9uR-pfUyxc8YFgo9Yw08u4f-1H7GHM&center=${defaultCenter.lat},${defaultCenter.lng}&zoom=17`;\n\n  return (\n    <div className=\"campus-navigation\">\n      <h1>Campus Navigation</h1>\n      <p>Explore Walter Sisulu University campus. Select a building to see its location and get directions.</p>\n      <div className=\"campus-map-container fade-in\">\n        <iframe\n          title=\"Campus Map\"\n          width=\"100%\"\n          height=\"100%\"\n          frameBorder=\"0\"\n          style={{ border: 0 }}\n          src={mapSrc}\n          allowFullScreen\n        ></iframe>\n      </div>\n      <div className=\"building-list\">\n        {buildings.map((b, i) => (\n          <div\n            key={b.name}\n            className={`building-card${selected === i ? ' selected' : ''}`}\n            onClick={() => setSelected(i)}\n            tabIndex={0}\n            style={{ animationDelay: `${i * 0.04}s` }}\n          >\n            <h3>{b.name}</h3>\n            <a href={b.url} target=\"_blank\" rel=\"noopener noreferrer\">View on Google Maps</a>\n            {selected === i && (\n              <a\n                href={`https://www.google.com/maps/dir/?api=1&destination=${b.lat},${b.lng}`}\n                target=\"_blank\"\n                rel=\"noopener noreferrer\"\n                style={{ marginTop: '0.5rem', color: '#0078d4', fontWeight: 600 }}\n              >\n                Get Directions\n              </a>\n            )}\n          </div>\n        ))}\n      </div>\n    </div>\n  );\n};\n\nexport default CampusNavigation;"],"mappings":";;AAAA,OAAOA,KAAK,IAAIC,QAAQ,QAAQ,OAAO;AACvC,OAAO,wBAAwB;AAAC,SAAAC,MAAA,IAAAC,OAAA;AAEhC,MAAMC,SAAS,GAAG,CAChB;EAAEC,IAAI,EAAE,OAAO;EAAEC,GAAG,EAAE,CAAC,SAAS;EAAEC,GAAG,EAAE,SAAS;EAAEC,GAAG,EAAE;AAAqD,CAAC,EAC7G;EAAEH,IAAI,EAAE,oBAAoB;EAAEC,GAAG,EAAE,CAAC,SAAS;EAAEC,GAAG,EAAE,SAAS;EAAEC,GAAG,EAAE;AAAqD,CAAC,EAC1H;EAAEH,IAAI,EAAE,kBAAkB;EAAEC,GAAG,EAAE,CAAC,SAAS;EAAEC,GAAG,EAAE,SAAS;EAAEC,GAAG,EAAE;AAAqD,CAAC,EACxH;EAAEH,IAAI,EAAE,SAAS;EAAEC,GAAG,EAAE,CAAC,SAAS;EAAEC,GAAG,EAAE,SAAS;EAAEC,GAAG,EAAE;AAAqD,CAAC,EAC/G;EAAEH,IAAI,EAAE,aAAa;EAAEC,GAAG,EAAE,CAAC,SAAS;EAAEC,GAAG,EAAE,SAAS;EAAEC,GAAG,EAAE;AAAqD,CAAC,EACnH;EAAEH,IAAI,EAAE,SAAS;EAAEC,GAAG,EAAE,CAAC,SAAS;EAAEC,GAAG,EAAE,SAAS;EAAEC,GAAG,EAAE;AAAqD,CAAC,EAC/G;EAAEH,IAAI,EAAE,IAAI;EAAEC,GAAG,EAAE,CAAC,SAAS;EAAEC,GAAG,EAAE,SAAS;EAAEC,GAAG,EAAE;AAAqD,CAAC,EAC1G;EAAEH,IAAI,EAAE,YAAY;EAAEC,GAAG,EAAE,CAAC,SAAS;EAAEC,GAAG,EAAE,SAAS;EAAEC,GAAG,EAAE;AAAqD,CAAC,EAClH;EAAEH,IAAI,EAAE,UAAU;EAAEC,GAAG,EAAE,CAAC,SAAS;EAAEC,GAAG,EAAE,SAAS;EAAEC,GAAG,EAAE;AAAqD,CAAC,EAChH;EAAEH,IAAI,EAAE,QAAQ;EAAEC,GAAG,EAAE,CAAC,SAAS;EAAEC,GAAG,EAAE,SAAS;EAAEC,GAAG,EAAE;AAAqD,CAAC,EAC9G;EAAEH,IAAI,EAAE,KAAK;EAAEC,GAAG,EAAE,CAAC,SAAS;EAAEC,GAAG,EAAE,SAAS;EAAEC,GAAG,EAAE;AAAqD,CAAC,EAC3G;EAAEH,IAAI,EAAE,gBAAgB;EAAEC,GAAG,EAAE,CAAC,SAAS;EAAEC,GAAG,EAAE,SAAS;EAAEC,GAAG,EAAE;AAAqD,CAAC,EACtH;EAAEH,IAAI,EAAE,aAAa;EAAEC,GAAG,EAAE,CAAC,SAAS;EAAEC,GAAG,EAAE,SAAS;EAAEC,GAAG,EAAE;AAAqD,CAAC,EACnH;EAAEH,IAAI,EAAE,kBAAkB;EAAEC,GAAG,EAAE,CAAC,SAAS;EAAEC,GAAG,EAAE,SAAS;EAAEC,GAAG,EAAE;AAAqD,CAAC,EACxH;EAAEH,IAAI,EAAE,8BAA8B;EAAEC,GAAG,EAAE,CAAC,SAAS;EAAEC,GAAG,EAAE,SAAS;EAAEC,GAAG,EAAE;AAAqD,CAAC,EACpI;EAAEH,IAAI,EAAE,WAAW;EAAEC,GAAG,EAAE,CAAC,SAAS;EAAEC,GAAG,EAAE,SAAS;EAAEC,GAAG,EAAE;AAAqD,CAAC,EACjH;EAAEH,IAAI,EAAE,sBAAsB;EAAEC,GAAG,EAAE,CAAC,SAAS;EAAEC,GAAG,EAAE,SAAS;EAAEC,GAAG,EAAE;AAAqD,CAAC,CAC7H;AAED,MAAMC,aAAa,GAAG;EAAEH,GAAG,EAAE,CAAC,OAAO;EAAEC,GAAG,EAAE;AAAQ,CAAC;AAErD,MAAMG,gBAA0B,GAAGA,CAAA,KAAM;EAAAC,EAAA;EACvC,MAAM,CAACC,QAAQ,EAAEC,WAAW,CAAC,GAAGZ,QAAQ,CAAgB,IAAI,CAAC;EAE7D,MAAMa,MAAM,GAAGF,QAAQ,KAAK,IAAI,GAC5B,4FAA4FR,SAAS,CAACQ,QAAQ,CAAC,CAACN,GAAG,IAAIF,SAAS,CAACQ,QAAQ,CAAC,CAACL,GAAG,UAAU,GACxJ,gGAAgGE,aAAa,CAACH,GAAG,IAAIG,aAAa,CAACF,GAAG,UAAU;EAEpJ,oBACEJ,OAAA;IAAKY,SAAS,EAAC,mBAAmB;IAAAC,QAAA,gBAChCb,OAAA;MAAAa,QAAA,EAAI;IAAiB;MAAAC,QAAA,EAAAC,YAAA;MAAAC,UAAA;MAAAC,YAAA;IAAA,OAAI,CAAC,eAC1BjB,OAAA;MAAAa,QAAA,EAAG;IAAkG;MAAAC,QAAA,EAAAC,YAAA;MAAAC,UAAA;MAAAC,YAAA;IAAA,OAAG,CAAC,eACzGjB,OAAA;MAAKY,SAAS,EAAC,8BAA8B;MAAAC,QAAA,eAC3Cb,OAAA;QACEkB,KAAK,EAAC,YAAY;QAClBC,KAAK,EAAC,MAAM;QACZC,MAAM,EAAC,MAAM;QACbC,WAAW,EAAC,GAAG;QACfC,KAAK,EAAE;UAAEC,MAAM,EAAE;QAAE,CAAE;QACrBC,GAAG,EAAEb,MAAO;QACZc,eAAe;MAAA;QAAAX,QAAA,EAAAC,YAAA;QAAAC,UAAA;QAAAC,YAAA;MAAA,OACR;IAAC;MAAAH,QAAA,EAAAC,YAAA;MAAAC,UAAA;MAAAC,YAAA;IAAA,OACP,CAAC,eACNjB,OAAA;MAAKY,SAAS,EAAC,eAAe;MAAAC,QAAA,EAC3BZ,SAAS,CAACyB,GAAG,CAAC,CAACC,CAAC,EAAEC,CAAC,kBAClB5B,OAAA;QAEEY,SAAS,EAAE,gBAAgBH,QAAQ,KAAKmB,CAAC,GAAG,WAAW,GAAG,EAAE,EAAG;QAC/DC,OAAO,EAAEA,CAAA,KAAMnB,WAAW,CAACkB,CAAC,CAAE;QAC9BE,QAAQ,EAAE,CAAE;QACZR,KAAK,EAAE;UAAES,cAAc,EAAE,GAAGH,CAAC,GAAG,IAAI;QAAI,CAAE;QAAAf,QAAA,gBAE1Cb,OAAA;UAAAa,QAAA,EAAKc,CAAC,CAACzB;QAAI;UAAAY,QAAA,EAAAC,YAAA;UAAAC,UAAA;UAAAC,YAAA;QAAA,OAAK,CAAC,eACjBjB,OAAA;UAAGgC,IAAI,EAAEL,CAAC,CAACtB,GAAI;UAAC4B,MAAM,EAAC,QAAQ;UAACC,GAAG,EAAC,qBAAqB;UAAArB,QAAA,EAAC;QAAmB;UAAAC,QAAA,EAAAC,YAAA;UAAAC,UAAA;UAAAC,YAAA;QAAA,OAAG,CAAC,EAChFR,QAAQ,KAAKmB,CAAC,iBACb5B,OAAA;UACEgC,IAAI,EAAE,sDAAsDL,CAAC,CAACxB,GAAG,IAAIwB,CAAC,CAACvB,GAAG,EAAG;UAC7E6B,MAAM,EAAC,QAAQ;UACfC,GAAG,EAAC,qBAAqB;UACzBZ,KAAK,EAAE;YAAEa,SAAS,EAAE,QAAQ;YAAEC,KAAK,EAAE,SAAS;YAAEC,UAAU,EAAE;UAAI,CAAE;UAAAxB,QAAA,EACnE;QAED;UAAAC,QAAA,EAAAC,YAAA;UAAAC,UAAA;UAAAC,YAAA;QAAA,OAAG,CACJ;MAAA,GAjBIU,CAAC,CAACzB,IAAI;QAAAY,QAAA,EAAAC,YAAA;QAAAC,UAAA;QAAAC,YAAA;MAAA,OAkBR,CACN;IAAC;MAAAH,QAAA,EAAAC,YAAA;MAAAC,UAAA;MAAAC,YAAA;IAAA,OACC,CAAC;EAAA;IAAAH,QAAA,EAAAC,YAAA;IAAAC,UAAA;IAAAC,YAAA;EAAA,OACH,CAAC;AAEV,CAAC;AAACT,EAAA,CAhDID,gBAA0B;AAAA+B,EAAA,GAA1B/B,gBAA0B;AAkDhC,eAAeA,gBAAgB;AAAC,IAAA+B,EAAA;AAAAC,YAAA,CAAAD,EAAA","ignoreList":[]},"metadata":{},"sourceType":"module","externalDependencies":[]}